{
"type": "FeatureCollection",
"name": "testcoffres",
"crs": { "type": "name", "properties": { "name": "urn:ogc:def:crs:OGC:1.3:CRS84" } },
"features": [
{ "type": "Feature", "properties": { "fid": 2.0, "Code": "Adj-2", "Commune": "Adjamé", "Quartier": "Agban", "Capacité": "20m3", "Nom": "Agban pharmacie", "Qtt": 0, "x": 385721.2, "y": 592167.6, "Affectatio": "Précollecte", "Numero cir": "CDSM_500 - AMPLIROLL/Tt - NOUVEAU", "Aménageme": "Pas de Plateforme", "Etat des l": "Supprimé", "Date de l'": null, "Nbre Coffr": "0C" }, "geometry": { "type": "Point", "coordinates": [ -4.03141395513603, 5.356500786893169 ] } },
{ "type": "Feature", "properties": { "fid": 130.0, "Code": "Son-39", "Commune": "Songon", "Quartier": null, "Capacité": "5m3", "Nom": "Dagbé campement gouro", "Qtt": 0, "x": 364290.3, "y": 588343.2, "Affectatio": "EcoEburnie", "Numero cir": null, "Aménageme": "Pas de Plateforme", "Etat des l": "Supprimé", "Date de l'": null, "Nbre Coffr": "0C" }, "geometry": { "type": "Point", "coordinates": [ -4.224740585840713, 5.321554888896179 ] } },
{ "type": "Feature", "properties": { "fid": 131.0, "Code": "Son-40", "Commune": "Songon", "Quartier": null, "Capacité": "5m3", "Nom": "Cité la Grâce", "Qtt": 0, "x": 364004.6, "y": 588325.8, "Affectatio": "EcoEburnie", "Numero cir": null, "Aménageme": "Pas de Plateforme", "Etat des l": "Supprimé", "Date de l'": null, "Nbre Coffr": "0C" }, "geometry": { "type": "Point", "coordinates": [ -4.227318233369902, 5.321392386625782 ] } },
{ "type": "Feature", "properties": { "fid": 135.0, "Code": "Son-44", "Commune": "Songon", "Quartier": null, "Capacité": "5m3", "Nom": "Dagbé", "Qtt": 0, "x": 363978.9, "y": 587393.9, "Affectatio": "EcoEburnie", "Numero cir": null, "Aménageme": "Pas de Plateforme", "Etat des l": "Supprimé", "Date de l'": null, "Nbre Coffr": "0C" }, "geometry": { "type": "Point", "coordinates": [ -4.227533434861082, 5.312963407738912 ] } },
{ "type": "Feature", "properties": { "fid": 143.0, "Code": "Son-52", "Commune": "Songon", "Quartier": "Dagbé", "Capacité": "5m3", "Nom": "Dagbé Cité Grâce", "Qtt": 0, "x": 363944.4, "y": 588305.4, "Affectatio": "EcoEburnie", "Numero cir": "CDSM_101", "Aménageme": "Pas de Plateforme", "Etat des l": "Supprimé", "Date de l'": null, "Nbre Coffr": "0C" }, "geometry": { "type": "Point", "coordinates": [ -4.227861070236825, 5.321206797954376 ] } },
{ "type": "Feature", "properties": { "fid": 221.0, "Code": "Yop-62", "Commune": "Yopougon", "Quartier": "Micao", "Capacité": "20m3", "Nom": "MICAO Terrain", "Qtt": 0, "x": 378099.1, "y": 594993.7, "Affectatio": "Précollecte", "Numero cir": "CDSM_500 - AMPLIROLL/Tt - NOUVEAU", "Aménageme": "Pas de Plateforme", "Etat des l": "Supprimé", "Date de l'": null, "Nbre Coffr": "0C" }, "geometry": { "type": "Point", "coordinates": [ -4.100244110111501, 5.381942675985287 ] } },
{ "type": "Feature", "properties": { "fid": 222.0, "Code": "Yop-63", "Commune": "Yopougon", "Quartier": "Micao", "Capacité": "20m3", "Nom": "Micao Extension", "Qtt": 0, "x": 377898.5, "y": 595662.9, "Affectatio": "Précollecte", "Numero cir": "CDSM_500 - AMPLIROLL/Tt - NOUVEAU", "Aménageme": "Pas de Plateforme", "Etat des l": "Supprimé", "Date de l'": "18/09/2023", "Nbre Coffr": "0C" }, "geometry": { "type": "Point", "coordinates": [ -4.102065347130197, 5.38799220455671 ] } },
{ "type": "Feature", "properties": { "fid": 223.0, "Code": "Yop-64", "Commune": "Yopougon", "Quartier": "Micao", "Capacité": "20m3", "Nom": "MICAO Sodefor", "Qtt": 0, "x": 377238.9, "y": 594613.4, "Affectatio": "Précollecte", "Numero cir": "CDSM_500 - AMPLIROLL/Tt - NOUVEAU", "Aménageme": "Pas de Plateforme", "Etat des l": "Supprimé", "Date de l'": null, "Nbre Coffr": "0C" }, "geometry": { "type": "Point", "coordinates": [ -4.108000836297097, 5.378488869283863 ] } },
{ "type": "Feature", "properties": { "fid": 234.0, "Code": "Yop-75", "Commune": "Yopougon", "Quartier": "Nouveau quartier", "Capacité": "5m3", "Nom": "Nouveau quartier Mossikro", "Qtt": 0, "x": 383125.4, "y": 590545.4, "Affectatio": "EcoEburnie", "Numero cir": "CDSM_PC", "Aménageme": "Pas de Plateforme", "Etat des l": "Supprimé", "Date de l'": "17/10/2023", "Nbre Coffr": "0C" }, "geometry": { "type": "Point", "coordinates": [ -4.054814350124593, 5.341788110061498 ] } },
{ "type": "Feature", "properties": { "fid": 265.0, "Code": "Yop-109", "Commune": "Yopougon", "Quartier": "Niangon Lokoa", "Capacité": "5m3", "Nom": "Lokoa Manioc", "Qtt": 0, "x": 377838.0, "y": 586919.4, "Affectatio": "EcoEburnie", "Numero cir": "CDSM_", "Aménageme": "Pas de Plateforme", "Etat des l": "Supprimé", "Date de l'": null, "Nbre Coffr": "0C" }, "geometry": { "type": "Point", "coordinates": [ -4.102469796793351, 5.3089076715181 ] } },
{ "type": "Feature", "properties": { "fid": 306.0, "Code": "Yop-152", "Commune": "Yopougon", "Quartier": "Micao", "Capacité": "5m3", "Nom": "MICAO forêt", "Qtt": 0, "x": 377649.9, "y": 595342.8, "Affectatio": "EcoEburnie", "Numero cir": "CDSM_", "Aménageme": "Pas de Plateforme", "Etat des l": "Supprimé", "Date de l'": null, "Nbre Coffr": "0C" }, "geometry": { "type": "Point", "coordinates": [ -4.10430365508177, 5.385092891313678 ] } },
{ "type": "Feature", "properties": { "fid": 307.0, "Code": "Yop-153", "Commune": "Yopougon", "Quartier": null, "Capacité": "5m3", "Nom": "MICAO", "Qtt": 0, "x": 377156.2, "y": 594484.3, "Affectatio": "EcoEburnie", "Numero cir": "CDSM_", "Aménageme": "Pas de Plateforme", "Etat des l": "Supprimé", "Date de l'": null, "Nbre Coffr": "0C" }, "geometry": { "type": "Point", "coordinates": [ -4.108745051070769, 5.377319827714728 ] } },
{ "type": "Feature", "properties": { "fid": 308.0, "Code": "Yop-154", "Commune": "Yopougon", "Quartier": null, "Capacité": "5m3", "Nom": "Forage 1", "Qtt": 0, "x": 377488.8, "y": 594326.8, "Affectatio": "EcoEburnie", "Numero cir": "CDSM_", "Aménageme": "Pas de Plateforme", "Etat des l": "Supprimé", "Date de l'": null, "Nbre Coffr": "0C" }, "geometry": { "type": "Point", "coordinates": [ -4.105740928446935, 5.37590071735573 ] } },
{ "type": "Feature", "properties": { "fid": 309.0, "Code": "Yop-155", "Commune": "Yopougon", "Quartier": null, "Capacité": "5m3", "Nom": "Forage 2", "Qtt": 0, "x": 377262.1, "y": 593973.9, "Affectatio": "EcoEburnie", "Numero cir": "CDSM_", "Aménageme": "Pas de Plateforme", "Etat des l": "Supprimé", "Date de l'": null, "Nbre Coffr": "0C" }, "geometry": { "type": "Point", "coordinates": [ -4.107781012456281, 5.372705090918825 ] } },
{ "type": "Feature", "properties": { "fid": 311.0, "Code": "Yop-157", "Commune": "Yopougon", "Quartier": null, "Capacité": "5m3", "Nom": "Forage 3", "Qtt": 0, "x": 377410.5, "y": 594084.3, "Affectatio": "EcoEburnie", "Numero cir": "CDSM_", "Aménageme": "Pas de Plateforme", "Etat des l": "Supprimé", "Date de l'": null, "Nbre Coffr": "0C" }, "geometry": { "type": "Point", "coordinates": [ -4.106443587086764, 5.373706067748944 ] } },
{ "type": "Feature", "properties": { "fid": 345.0, "Code": "Yop-192", "Commune": "Yopougon", "Quartier": "Niangon sud", "Capacité": "5m3", "Nom": "Terminus 27", "Qtt": 0, "x": 379155.7, "y": 587701.0, "Affectatio": "EcoEburnie", "Numero cir": "CDSM_", "Aménageme": "Pas de Plateforme", "Etat des l": "Supprimé", "Date de l'": null, "Nbre Coffr": "0C" }, "geometry": { "type": "Point", "coordinates": [ -4.090591906962464, 5.315998261060908 ] } },
{ "type": "Feature", "properties": { "fid": 392.0, "Code": "Adj-3", "Commune": "Adjamé", "Quartier": null, "Capacité": "20m3", "Nom": "Hôtel patient", "Qtt": 2, "x": 386163.5, "y": 592529.7, "Affectatio": "Précollecte", "Numero cir": "CDSM_500 - AMPLIROLL/Tt - NOUVEAU", "Aménageme": "Plateforme pour 2 coffres", "Etat des l": "Pose", "Date de l'": "31/10/2023", "Nbre Coffr": "2C" }, "geometry": { "type": "Point", "coordinates": [ -4.027427920444175, 5.359782712936095 ] } },
{ "type": "Feature", "properties": { "fid": 393.0, "Code": "Adj-4", "Commune": "Adjamé", "Quartier": "Bracodi", "Capacité": "20m3", "Nom": "Bracodi", "Qtt": 1, "x": 386049.7, "y": 592782.8, "Affectatio": "Précollecte", "Numero cir": "CDSM_500 - AMPLIROLL/Tt - NOUVEAU", "Aménageme": "Pas de Plateforme", "Etat des l": "Pose", "Date de l'": "31/10/2023", "Nbre Coffr": "1C" }, "geometry": { "type": "Point", "coordinates": [ -4.028808026275723, 5.362968854319493 ] } },
{ "type": "Feature", "properties": { "fid": 410.0, "Code": "Adj-24", "Commune": "Adjamé", "Quartier": null, "Capacité": "5m3", "Nom": "Cuvette SOTRA", "Qtt": 1, "x": 386055.00000000006, "y": 592390.2, "Affectatio": "EcoEburnie", "Numero cir": "CDSM_111, CDSM_112, CDSM_123, CDSM_124", "Aménageme": "Pas de Plateforme", "Etat des l": "Pose", "Date de l'": "31/10/2023", "Nbre Coffr": "1C" }, "geometry": { "type": "Point", "coordinates": [ -4.028404966521814, 5.358519283048719 ] } },
{ "type": "Feature", "properties": { "fid": 411.0, "Code": "Adj-25", "Commune": "Adjamé", "Quartier": "Wrangler", "Capacité": "5m3", "Nom": "Entrée nouvelle gare - Wrangler", "Qtt": 1, "x": 385912.99999999994, "y": 592903.0, "Affectatio": "EcoEburnie", "Numero cir": "CDSM_111, CDSM_112", "Aménageme": "Pas de Plateforme", "Etat des l": "Pose", "Date de l'": "07/12/2023", "Nbre Coffr": "1C" }, "geometry": { "type": "Point", "coordinates": [ -4.029694211532663, 5.363155430271209 ] } },
{ "type": "Feature", "properties": { "fid": 439.0, "Code": "Att-22", "Commune": "Attécoubé", "Quartier": "Agban village", "Capacité": "20m3", "Nom": "Agban village", "Qtt": 2, "x": 385678.8, "y": 592527.4, "Affectatio": "EcoEburnie", "Numero cir": "CDSM_505 - AMPLIROLL - ATTECOUBE – EEB", "Aménageme": "Plateforme pour 1 coffre", "Etat des l": "Pose", "Date de l'": "03/04/2024", "Nbre Coffr": "2C" }, "geometry": { "type": "Point", "coordinates": [ -4.031802051714007, 5.359754549388266 ] } },
{ "type": "Feature", "properties": { "fid": 444.0, "Code": "Att-36", "Commune": "Attécoubé", "Quartier": "Agban village", "Capacité": "5m3", "Nom": "Pharmacie Agban", "Qtt": 1, "x": 385881.9, "y": 592413.1, "Affectatio": "EcoEburnie", "Numero cir": "CDSM_111", "Aménageme": "Pas de Plateforme", "Etat des l": "Pose", "Date de l'": "07/12/2023", "Nbre Coffr": "1C" }, "geometry": { "type": "Point", "coordinates": [ -4.029967448257809, 5.358723787962258 ] } },
{ "type": "Feature", "properties": { "fid": 447.0, "Code": "Att-39", "Commune": "Attécoubé", "Quartier": "Mossikro", "Capacité": "5m3", "Nom": "Mossikro en bas d'étage", "Qtt": 1, "x": 383137.2, "y": 590539.9, "Affectatio": "EcoEburnie", "Numero cir": "CDSM_110, CDSM_122", "Aménageme": "Pas de Plateforme", "Etat des l": "Pose", "Date de l'": "17/10/2023", "Nbre Coffr": "1C" }, "geometry": { "type": "Point", "coordinates": [ -4.054707780142533, 5.341738545591303 ] } },
{ "type": "Feature", "properties": { "fid": 458.0, "Code": "Son-4", "Commune": "Songon", "Quartier": "Jacqueville", "Capacité": "20m3", "Nom": "Carrefour Jacqueville", "Qtt": 1, "x": 363524.1, "y": 588364.0, "Affectatio": "Précollecte", "Numero cir": "CDSM_500 - AMPLIROLL/Tt - NOUVEAU", "Aménageme": "Pas Plateforme", "Etat des l": "Pose", "Date de l'": "31/10/2023", "Nbre Coffr": "1C" }, "geometry": { "type": "Point", "coordinates": [ -4.231654614047968, 5.32172923367737 ] } },
{ "type": "Feature", "properties": { "fid": 465.0, "Code": "Son-12", "Commune": "Songon", "Quartier": "Dagbé", "Capacité": "20m3", "Nom": "Songon Dagbé (Cimétière)", "Qtt": 1, "x": 363731.3, "y": 587846.1, "Affectatio": "Précollecte", "Numero cir": "CDSM_500 - AMPLIROLL/Tt - NOUVEAU", "Aménageme": "Pas Plateforme", "Etat des l": "Pose", "Date de l'": "31/10/2023", "Nbre Coffr": "1C" }, "geometry": { "type": "Point", "coordinates": [ -4.229775686789599, 5.317048854679387 ] } },
{ "type": "Feature", "properties": { "fid": 481.0, "Code": "Son-53", "Commune": "Songon", "Quartier": "Dagbé", "Capacité": "5m3", "Nom": "Dagbé 1", "Qtt": 1, "x": 363776.99999999994, "y": 587371.4, "Affectatio": "EcoEburnie", "Numero cir": "CDSM_PC", "Aménageme": "Pas de Plateforme", "Etat des l": "Pose", "Date de l'": "31/10/2023", "Nbre Coffr": "1C" }, "geometry": { "type": "Point", "coordinates": [ -4.229354810705405, 5.312756282014481 ] } },
{ "type": "Feature", "properties": { "fid": 482.0, "Code": "Son-54", "Commune": "Songon", "Quartier": "Dagbé", "Capacité": "5m3", "Nom": "Dagbé 2", "Qtt": 1, "x": 363892.7, "y": 587362.9, "Affectatio": "EcoEburnie", "Numero cir": "CDSM_PC", "Aménageme": "Pas de Plateforme", "Etat des l": "Pose", "Date de l'": "31/10/2023", "Nbre Coffr": "1C" }, "geometry": { "type": "Point", "coordinates": [ -4.228310677460813, 5.312681482649507 ] } },
{ "type": "Feature", "properties": { "fid": 516.0, "Code": "Yop-27", "Commune": "Yopougon", "Quartier": "Niangon Lokoa", "Capacité": "20m3", "Nom": "Village Lokoa Marché", "Qtt": 1, "x": 377986.9, "y": 587317.0, "Affectatio": "Précollecte", "Numero cir": "CDSM_500 - AMPLIROLL/Tt - NOUVEAU", "Aménageme": "Plateforme pour 1 coffre", "Etat des l": "Pose", "Date de l'": null, "Nbre Coffr": "1C" }, "geometry": { "type": "Point", "coordinates": [ -4.101132576511169, 5.31250630195102 ] } },
{ "type": "Feature", "properties": { "fid": 544.0, "Code": "Yop-65", "Commune": "Yopougon", "Quartier": "Micao-Zone Industrielle", "Capacité": "20m3", "Nom": "Micao arrêt Sotra", "Qtt": 2, "x": 378604.0, "y": 594163.6, "Affectatio": "Précollecte", "Numero cir": "CDSM_500 - AMPLIROLL/Tt - NOUVEAU", "Aménageme": "Plateforme pour 1 coffre", "Etat des l": "Pose", "Date de l'": "08/12/2023", "Nbre Coffr": "2C" }, "geometry": { "type": "Point", "coordinates": [ -4.095674157227072, 5.374442754836348 ] } },
{ "type": "Feature", "properties": { "fid": 549.0, "Code": "Yop-80", "Commune": "Yopougon", "Quartier": "Nouveau quartier", "Capacité": "5m3", "Nom": "Marché Nouveau quartier", "Qtt": 1, "x": 382847.6, "y": 590327.8, "Affectatio": "EcoEburnie", "Numero cir": "CDSM_110, CDSM_122", "Aménageme": "Pas de Plateforme", "Etat des l": "Pose", "Date de l'": "31/10/2023", "Nbre Coffr": "1C" }, "geometry": { "type": "Point", "coordinates": [ -4.057317883352087, 5.339815611114309 ] } },
{ "type": "Feature", "properties": { "fid": 550.0, "Code": "Yop-81", "Commune": "Yopougon", "Quartier": "Nouveau quartier", "Capacité": "5m3", "Nom": "LAMA (carrefour)", "Qtt": 1, "x": 383075.4, "y": 590192.2, "Affectatio": "EcoEburnie", "Numero cir": "CDSM_110, CDSM_122", "Aménageme": "Pas de Plateforme", "Etat des l": "Pose", "Date de l'": "31/10/2023", "Nbre Coffr": "1C" }, "geometry": { "type": "Point", "coordinates": [ -4.055260093248944, 5.33859264694224 ] } },
{ "type": "Feature", "properties": { "fid": 558.0, "Code": "Yop-97", "Commune": "Yopougon", "Quartier": "Niangon sud", "Capacité": "5m3", "Nom": "Niangon Centre Social", "Qtt": 1, "x": 378664.4, "y": 587648.1, "Affectatio": "EcoEburnie", "Numero cir": "CDSM_108", "Aménageme": "Pas de Plateforme", "Etat des l": "Pose", "Date de l'": "07/12/2023", "Nbre Coffr": "1C" }, "geometry": { "type": "Point", "coordinates": [ -4.095024383788609, 5.315511933891334 ] } },
{ "type": "Feature", "properties": { "fid": 562.0, "Code": "Yop-107", "Commune": "Yopougon", "Quartier": "Lokoa", "Capacité": "5m3", "Nom": "Lokoa Pont", "Qtt": 1, "x": 377938.6, "y": 587614.5, "Affectatio": "EcoEburnie", "Numero cir": "CDSM_PC", "Aménageme": "Pas de Plateforme", "Etat des l": "Pose", "Date de l'": "31/10/2023", "Nbre Coffr": "1C" }, "geometry": { "type": "Point", "coordinates": [ -4.101573195904122, 5.315196367664429 ] } },
{ "type": "Feature", "properties": { "fid": 611.0, "Code": "Yop-219", "Commune": "Yopougon", "Quartier": "Azito", "Capacité": "5m3", "Nom": "Azito Sicogi", "Qtt": 1, "x": 378987.441, "y": 587197.402, "Affectatio": "EcoEburnie", "Numero cir": "CSDM_", "Aménageme": "Pas de Plateforme", "Etat des l": "Pose", "Date de l'": "25/02/2023", "Nbre Coffr": "1C" }, "geometry": { "type": "Point", "coordinates": [ -4.092102196442948, 5.311440591356635 ] } },
{ "type": "Feature", "properties": { "fid": 636.0, "Code": "Att-59", "Commune": "Attécoubé", "Quartier": "Mossikro", "Capacité": "5m3", "Nom": "Boulangerie", "Qtt": 1, "x": 383617.9174189886, "y": 590372.97949507704, "Affectatio": "EcoEburnie", "Numero cir": "110", "Aménageme": null, "Etat des l": "Pose", "Date de l'": "13/11/2023", "Nbre Coffr": "1C" }, "geometry": { "type": "Point", "coordinates": [ -4.050367142773613, 5.34023618717022 ] } },
{ "type": "Feature", "properties": { "fid": 637.0, "Code": "Att-62", "Commune": "Attécoubé", "Quartier": "Agban village", "Capacité": "5m3", "Nom": "Pharmacie Agban-Gare STB", "Qtt": 1, "x": 385593.30550706881, "y": 592387.71298474376, "Affectatio": "EcoEburnie", "Numero cir": "110", "Aménageme": null, "Etat des l": "Pose", "Date de l'": "17/10/2023", "Nbre Coffr": "1C" }, "geometry": { "type": "Point", "coordinates": [ -4.031334897177939, 5.358928315790251 ] } },
{ "type": "Feature", "properties": { "fid": null, "Code": "Adj-39", "Commune": "Adjamé", "Quartier": null, "Capacité": "20m3", "Nom": "Gare Nord", "Qtt": 1, "x": 386210.80969159817, "y": 592465.19741505082, "Affectatio": "EcoEburnie", "Numero cir": "111", "Aménageme": null, "Etat des l": null, "Date de l'": "22/02/2024", "Nbre Coffr": "1C" }, "geometry": { "type": "Point", "coordinates": [ -4.027, 5.3592 ] } }
]
}
